{"data": [{"ec5_uuid":"e2bc37c4-f646-4897-bc9f-0e867d93d019","created_at":"2022-05-31T07:32:44.791Z","uploaded_at":"2022-05-31T07:32:49.000Z","created_by":"qjoao.filipe@gmail.com","title":"e2bc37c4-f646-4897-bc9f-0e867d93d019","1_O_tesvous_":{"latitude":46.194581,"longitude":6.14198,"accuracy":14,"UTM_Northing":5119638,"UTM_Easting":279477,"UTM_Zone":"32T"},"2_Environ_combien_de":1,"3_Facultatif_Ajoutez":""},{"ec5_uuid":"8320d0cd-f025-4215-9767-6a6ebde75398","created_at":"2022-05-30T16:45:25.665Z","uploaded_at":"2022-05-30T16:45:33.000Z","created_by":"qjoao.filipe@gmail.com","title":"8320d0cd-f025-4215-9767-6a6ebde75398","1_O_tesvous_":{"latitude":46.236582,"longitude":6.081442,"accuracy":4,"UTM_Northing":5124474,"UTM_Easting":274978,"UTM_Zone":"32T"},"2_Environ_combien_de":1,"3_Facultatif_Ajoutez":""},{"ec5_uuid":"9176bfd5-9ecf-45a4-b90d-c91e50746fa1","created_at":"2022-05-29T19:03:42.913Z","uploaded_at":"2022-05-29T19:03:49.000Z","created_by":"qjoao.filipe@gmail.com","title":"9176bfd5-9ecf-45a4-b90d-c91e50746fa1","1_O_tesvous_":{"latitude":46.182319,"longitude":6.120258,"accuracy":7,"UTM_Northing":5118336,"UTM_Easting":277752,"UTM_Zone":"32T"},"2_Environ_combien_de":2,"3_Facultatif_Ajoutez":""},{"ec5_uuid":"e324cc36-aba4-47fd-ac1c-6ca14228fd22","created_at":"2022-05-29T18:05:49.059Z","uploaded_at":"2022-05-29T18:05:54.000Z","created_by":"qjoao.filipe@gmail.com","title":"e324cc36-aba4-47fd-ac1c-6ca14228fd22","1_O_tesvous_":{"latitude":46.194656,"longitude":6.148722,"accuracy":3,"UTM_Northing":5119627,"UTM_Easting":279998,"UTM_Zone":"32T"},"2_Environ_combien_de":1,"3_Facultatif_Ajoutez":""},{"ec5_uuid":"bf510d44-dbaa-4c5d-aed1-c9f56b3c8c1d","created_at":"2022-05-29T17:29:08.555Z","uploaded_at":"2022-05-29T17:29:19.000Z","created_by":"qjoao.filipe@gmail.com","title":"bf510d44-dbaa-4c5d-aed1-c9f56b3c8c1d","1_O_tesvous_":{"latitude":46.196514,"longitude":6.142299,"accuracy":8,"UTM_Northing":5119851,"UTM_Easting":279509,"UTM_Zone":"32T"},"2_Environ_combien_de":2,"3_Facultatif_Ajoutez":""},{"ec5_uuid":"e35dde27-03fb-4e0e-8f64-926c850ac768","created_at":"2022-05-29T17:18:18.551Z","uploaded_at":"2022-05-29T17:29:17.000Z","created_by":"qjoao.filipe@gmail.com","title":"e35dde27-03fb-4e0e-8f64-926c850ac768","1_O_tesvous_":{"latitude":46.194798,"longitude":6.154688,"accuracy":4,"UTM_Northing":5119626,"UTM_Easting":280459,"UTM_Zone":"32T"},"2_Environ_combien_de":1,"3_Facultatif_Ajoutez":""},{"ec5_uuid":"cccc5272-c4cf-4ac7-b317-64a029878cf4","created_at":"2022-05-29T16:47:37.298Z","uploaded_at":"2022-05-29T16:47:45.000Z","created_by":"qjoao.filipe@gmail.com","title":"cccc5272-c4cf-4ac7-b317-64a029878cf4","1_O_tesvous_":{"latitude":46.200582,"longitude":6.149452,"accuracy":6,"UTM_Northing":5120284,"UTM_Easting":280078,"UTM_Zone":"32T"},"2_Environ_combien_de":1,"3_Facultatif_Ajoutez":""},{"ec5_uuid":"c10b3266-60eb-459b-9d6d-4cab946805de","created_at":"2022-05-29T16:34:26.474Z","uploaded_at":"2022-05-29T16:47:43.000Z","created_by":"qjoao.filipe@gmail.com","title":"c10b3266-60eb-459b-9d6d-4cab946805de","1_O_tesvous_":{"latitude":46.2025,"longitude":6.147588,"accuracy":6,"UTM_Northing":5120502,"UTM_Easting":279941,"UTM_Zone":"32T"},"2_Environ_combien_de":1,"3_Facultatif_Ajoutez":""},{"ec5_uuid":"73c41346-9e0e-4976-b323-e3d31c668caa","created_at":"2022-05-24T15:06:05.307Z","uploaded_at":"2022-05-24T15:06:15.000Z","created_by":"qjoao.filipe@gmail.com","title":"73c41346-9e0e-4976-b323-e3d31c668caa","1_O_tesvous_":{"latitude":46.197523,"longitude":6.133383,"accuracy":39,"UTM_Northing":5119988,"UTM_Easting":278826,"UTM_Zone":"32T"},"2_Environ_combien_de":1,"3_Facultatif_Ajoutez":""},{"ec5_uuid":"527383fa-23a8-4183-acb9-628f85d657f5","created_at":"2022-05-24T15:00:07.274Z","uploaded_at":"2022-05-24T15:00:11.000Z","created_by":"qjoao.filipe@gmail.com","title":"527383fa-23a8-4183-acb9-628f85d657f5","1_O_tesvous_":{"latitude":46.19537,"longitude":6.138472,"accuracy":12,"UTM_Northing":5119735,"UTM_Easting":279210,"UTM_Zone":"32T"},"2_Environ_combien_de":1,"3_Facultatif_Ajoutez":""},{"ec5_uuid":"74e44726-35c7-48e9-a8cb-654b78db158d","created_at":"2022-05-24T11:38:27.054Z","uploaded_at":"2022-05-24T11:38:46.000Z","created_by":"qjoao.filipe@gmail.com","title":"74e44726-35c7-48e9-a8cb-654b78db158d","1_O_tesvous_":{"latitude":46.194944,"longitude":6.142274,"accuracy":12,"UTM_Northing":5119677,"UTM_Easting":279501,"UTM_Zone":"32T"},"2_Environ_combien_de":2,"3_Facultatif_Ajoutez":""},{"ec5_uuid":"9ca8dd96-3016-4932-afca-569b47b78a78","created_at":"2022-05-24T11:38:00.106Z","uploaded_at":"2022-05-24T11:38:44.000Z","created_by":"qjoao.filipe@gmail.com","title":"9ca8dd96-3016-4932-afca-569b47b78a78","1_O_tesvous_":{"latitude":46.194935,"longitude":6.142558,"accuracy":17,"UTM_Northing":5119675,"UTM_Easting":279523,"UTM_Zone":"32T"},"2_Environ_combien_de":1,"3_Facultatif_Ajoutez":""},{"ec5_uuid":"4654dab6-5e53-486c-91b8-640623b1cf85","created_at":"2022-05-24T11:00:33.526Z","uploaded_at":"2022-05-24T11:00:38.000Z","created_by":"qjoao.filipe@gmail.com","title":"4654dab6-5e53-486c-91b8-640623b1cf85","1_O_tesvous_":{"latitude":46.176853,"longitude":6.139561,"accuracy":14,"UTM_Northing":5117675,"UTM_Easting":279219,"UTM_Zone":"32T"},"2_Environ_combien_de":2,"3_Facultatif_Ajoutez":""},{"ec5_uuid":"02295a94-1452-4ca8-a16d-840961992ba2","created_at":"2022-05-23T12:10:23.916Z","uploaded_at":"2022-05-23T12:10:27.000Z","created_by":"qjoao.filipe@gmail.com","title":"02295a94-1452-4ca8-a16d-840961992ba2","1_O_tesvous_":{"latitude":46.198251,"longitude":6.132041,"accuracy":22,"UTM_Northing":5120073,"UTM_Easting":278725,"UTM_Zone":"32T"},"2_Environ_combien_de":1,"3_Facultatif_Ajoutez":"02295a94-1452-4ca8-a16d-840961992ba2_1653307820.jpg"},{"ec5_uuid":"b6866b10-18e3-4e52-a212-a5391af43bae","created_at":"2022-05-23T12:04:57.089Z","uploaded_at":"2022-05-23T12:05:08.000Z","created_by":"qjoao.filipe@gmail.com","title":"b6866b10-18e3-4e52-a212-a5391af43bae","1_O_tesvous_":{"latitude":46.198236,"longitude":6.132048,"accuracy":23,"UTM_Northing":5120071,"UTM_Easting":278725,"UTM_Zone":"32T"},"2_Environ_combien_de":2,"3_Facultatif_Ajoutez":""},{"ec5_uuid":"e3158a81-1ce5-4573-9a3e-ba9d32c68bab","created_at":"2022-05-23T08:11:10.840Z","uploaded_at":"2022-05-23T08:11:17.000Z","created_by":"qjoao.filipe@gmail.com","title":"e3158a81-1ce5-4573-9a3e-ba9d32c68bab","1_O_tesvous_":{"latitude":46.194627,"longitude":6.142017,"accuracy":15,"UTM_Northing":5119643,"UTM_Easting":279480,"UTM_Zone":"32T"},"2_Environ_combien_de":1,"3_Facultatif_Ajoutez":""}]}